[{"number":10,"name":"#00010- PICASSO","address":"PICASSO - RUE PABLO PICASSO","latitude":47.216207,"longitude":-1.533796},{"number":38,"name":"#00038-PLACE RICORDEAU","address":"PLACE RICORDEAU","latitude":47.2121084631418,"longitude":-1.55304912932047},{"number":66,"name":"#00066-CHANZY","address":"CHANZY - FACE AU 23 AVENUE DE CHANZY","latitude":47.2254298853335,"longitude":-1.54799992590737},{"number":3,"name":"#00003-STRASBOURG","address":"STRASBOURG - PLACE TIRANT LO BLANC","latitude":47.2164797718207,"longitude":-1.55154060534636},{"number":2,"name":"#00002-HÔTEL DE VILLE","address":"HÔTEL DE VILLE - FACE AU 29 RUE DE STRASBOURG","latitude":47.2185718130915,"longitude":-1.55348429039295},{"number":43,"name":"#00043 - MACHINE DE L'ÎLE","address":"MACHINE DE L'ÎLE - 3 BD LEON BUREAU","latitude":47.206918958696,"longitude":-1.56480679078299},{"number":58,"name":"#00058-PALAIS DES SPORTS","address":"PALAIS DES SPORTS - 8 RUE ANDRE TARDIEU","latitude":47.208465,"longitude":-1.536657},{"number":94,"name":"#00094-PETIT PORT","address":"PETIT PORT - BD DU PETIT PORT","latitude":47.2432639149755,"longitude":-1.55634461016798},{"number":84,"name":"#00084-RÉGION","address":"REGION - RUE DE LA LOIRE","latitude":47.2107421421814,"longitude":-1.52593345192508},{"number":31,"name":"#00031-BOURSE","address":"BOURSE - SQUARE DE LA BOURSE","latitude":47.2120830307532,"longitude":-1.55908655123987},{"number":74,"name":"#00074-CANCLAUX","address":"CANCLAUX - 8 PLACE CANCLAUX","latitude":47.2143336608893,"longitude":-1.57492461719297},{"number":117,"name":"#00117 - MAIRIE DE CHANTENAY","address":"MAIRIE DE CHANTENAY - PLACE DE LA LIBERTE","latitude":47.20656,"longitude":-1.58785},{"number":72,"name":"#00072-BELLAMY-GUÉ MOREAU","address":"Bellamy-Gué Moreau-138 rue Paul Bellamy","latitude":47.2286256905746,"longitude":-1.56180639301113},{"number":40,"name":"#00040-MADELEINE","address":"MADELEINE - 2 QUAI MONCOUSU","latitude":47.2088046424378,"longitude":-1.55041191411915},{"number":22,"name":"#00022-MOQUECHIEN","address":"MOQUECHIEN - 8 RUE MOQUECHIEN","latitude":47.220392126692,"longitude":-1.55553104193626},{"number":19,"name":"#00019-SAINT SIMILIEN","address":"SAINT SIMILIEN - 1 PLACE SAINT SIMILIEN","latitude":47.21985446733,"longitude":-1.55892089047478},{"number":106,"name":"#00106-GARENNES","address":"GARENNES - 2 RUE DES GARENNES","latitude":47.202127,"longitude":-1.5787},{"number":51,"name":"#00051-TABARLY","address":"3 BOULEVARD DE BERLIN DEVANT MAISON DE QUARTIER","latitude":47.2141946314965,"longitude":-1.52973588598036},{"number":89,"name":"#00089-SAINT-AIGNAN","address":"SAINT AIGNAN - 65 BD ST AIGNAN","latitude":47.2074386375471,"longitude":-1.57868926431099},{"number":112,"name":"#00112 - POLE SOCIAL MARION CAHOUR","address":"POLE SOCIAL MARION CAHOUR (CHAPEAU MARION CAHOUR) - 10 RUE MARION CAHOUR - REZE","latitude":47.188684,"longitude":-1.567201},{"number":77,"name":"#00077-ECOLE D'ARCHITECTURE","address":"ECOLE D'ARCHITECTURE - QUAI F MITTERRAND","latitude":47.2076056402121,"longitude":-1.55753246791432},{"number":42,"name":"#00042-GARE MARITIME","address":"GARE MARITIME - PLACE JACKSONVILLE","latitude":47.2065977289879,"longitude":-1.5726102869705},{"number":87,"name":"#00087-ANATOLE FRANCE","address":"ANATOLE FRANCE - 41 RUE ALEXANDRE DUMAS","latitude":47.2236048153991,"longitude":-1.57137357811241},{"number":47,"name":"#00047- MARTYRS NANTAIS","address":"MARTYRS NANTAIS - 1 BD DES MARTYRS NANTAIS","latitude":47.206933,"longitude":-1.548169},{"number":109,"name":"#00109 - CLOS TOREAU","address":"CLOS TOREAU - BOULEVARD EMILE GABORY","latitude":47.19426,"longitude":-1.529313},{"number":97,"name":"#00097-SAINT DONATIEN","address":"SAINT DONATIEN - PLACE DU 51éme RIMA","latitude":47.2290880870929,"longitude":-1.54029259428922},{"number":30,"name":"#00030-COMMERCE","address":"COMMERCE - FACE PLACE DU COMMERCE","latitude":47.2131205510312,"longitude":-1.55739323562824},{"number":56,"name":"#00056-VINCENT GACHE","address":"VINCENT GACHE - 9 RUE FRANCOIS ALBERT","latitude":47.2067986185753,"longitude":-1.54177773985064},{"number":110,"name":"#00110 - AUDITORIUM","address":"AUDITORIUM - 1 AVENUE DE BRETAGNE - REZE","latitude":47.185402,"longitude":-1.554025},{"number":7,"name":"#00007- BARILLERIE","address":"BARILLERIE - 2 ALLEE PENTHIEVRE","latitude":47.2153313580104,"longitude":-1.55612612597517},{"number":27,"name":"#00027-GUIST'HAU NORD","address":"GUIST'HAU NORD - 42 BD GUIST'HAU","latitude":47.2179298163251,"longitude":-1.56917188330244},{"number":15,"name":"#00015-PLACE ARISTIDE BRIAND","address":"PLACE ARISTIDE BRIAND","latitude":47.2171848232902,"longitude":-1.56298679328837},{"number":83,"name":"#00083-MILLERAND","address":"MILLERAND - 9 BD ALEXANDRE MILLERAND","latitude":47.2081996450388,"longitude":-1.53018043595997},{"number":45,"name":"#00045-PRAIRIE AU DUC","address":"PRAIRIE AU DUC - 25 BOULEVARD DE LA PRAIRIE AU DUC","latitude":47.2047839355992,"longitude":-1.55892310936669},{"number":34,"name":"#00034-MEDIATHEQUE","address":"MEDIATHEQUE - 24 QUAI DE LA FOSSE","latitude":47.2108869258159,"longitude":-1.56174490565258},{"number":123,"name":"#00123 - TRARIEUX","address":"TRARIEUX - 3 PLACE GABRIEL TRARIEUX","latitude":47.225957,"longitude":-1.522334},{"number":103,"name":"#00103-GRUE JAUNE","address":"GRUE JAUNE","latitude":47.204879,"longitude":-1.569191},{"number":115,"name":"#00115 - TRENTEMOULT","address":"TRENTEMOULT - EN FACE 11 QUAI MARCEL BOISSARD","latitude":47.195264,"longitude":-1.582056},{"number":122,"name":"#00122 - MITRIE","address":"MITRIE - 5 ROUTE DE SAINTE LUCE","latitude":47.22865,"longitude":-1.526193},{"number":18,"name":"#00018-PLACE VIARME","address":"PLACE VIARME - 23 PLACE VIARME","latitude":47.2214293389855,"longitude":-1.56330836686976},{"number":91,"name":"#00091-RD PT VANNES","address":"RD PT VANNES - 65 BD LE LASSEUR","latitude":47.2295806053692,"longitude":-1.57211457799373},{"number":46,"name":"#00046-PLACE REPUBLIQUE","address":"PLACE DE LA REPUBLIQUE - 3 PLACE DE LA REPUBLIQUE","latitude":47.2053240902952,"longitude":-1.55518310791618},{"number":95,"name":"#00095-MICHELET","address":"MICHELET - BD MICHELET","latitude":47.235158,"longitude":-1.556322},{"number":20,"name":"#00020-BOUFFAY","address":"BOUFFAY - 13 ALLEE DU PART MAILLARD","latitude":47.214301,"longitude":-1.552782},{"number":81,"name":"#00081 - MANGIN","address":"MANGIN - DEV 8 PLACE MANGIN","latitude":47.2009555172397,"longitude":-1.54550725123162},{"number":55,"name":"#00055-MAGELLAN","address":"MAGELLAN - 11 RUE DE BELFORT","latitude":47.2107814065594,"longitude":-1.54429847094521},{"number":78,"name":"#00078-DE GAULLE","address":"DE GAULLE - PONT A. BRIAND / BD DE GAULLE","latitude":47.2084436771829,"longitude":-1.54051448829019},{"number":67,"name":"#00067-PLACE WALDECK ROUSSEAU","address":"PLACE WALDECK ROUSSEAU","latitude":47.2277747610651,"longitude":-1.55214798607222},{"number":92,"name":"#00092-DT PT RENNES","address":"RD PT RENNES - ANGLE BD LE LASSEUR & RUE PAUL BELLAMY","latitude":47.2330281847759,"longitude":-1.56605906933562},{"number":59,"name":"#00059-STADE SAUPIN","address":"STADE SAUPIN - 35 QUAI MALAKOFF","latitude":47.213682,"longitude":-1.540181},{"number":53,"name":"#00053-OLIVETTES","address":"OLIVETTES - 10 RUE DES OLIVETTES","latitude":47.2117363932221,"longitude":-1.54988602493776},{"number":57,"name":"#00057-GAETAN RONDEAU","address":"GAETAN RONDEAU - 20 RUE GAETAN RONDEAU","latitude":47.2053961321791,"longitude":-1.53758186300399},{"number":76,"name":"#00076-PLACE RENÉ BOUHIER","address":"PLACE RENE BOUHIER - 8 PLACE RENE BOUHIER","latitude":47.2094290925244,"longitude":-1.57051533628071},{"number":8,"name":"#00008-BOUCHERIE","address":"BOUCHERIE - FACE AU 4 RUE DE LA BOUCHERIE","latitude":47.2162008925882,"longitude":-1.55711168019757},{"number":79,"name":"#00079-MALAKOFF","address":"MALAKOFF - 15 QUAI MALAKOFF","latitude":47.213395,"longitude":-1.536954},{"number":75,"name":"#00075-LAMORICIERE","address":"LAMORICIERE - PLACE BEAUMANOIR","latitude":47.212308958847,"longitude":-1.57136936022191},{"number":116,"name":"#00116 - LIBERTE","address":"LIBERTE - ROND POINT DE LOUISIANE","latitude":47.198124,"longitude":-1.588395},{"number":73,"name":"#00073-SARRADIN","address":"SARRADIN - FACE AU 4 PLACE SARRADIN","latitude":47.2208824330189,"longitude":-1.57043859807393},{"number":49,"name":"#00049-DUCHESSE ANNE","address":"DUCHESSE ANNE - 2 PLACE DE LA DUCHESSE ANNE","latitude":47.2167,"longitude":-1.547253},{"number":25,"name":"#00025-DALBY","address":"DALBY- 61 BD ERNEST DALBY FACE STATION SERVICE","latitude":47.223508869812,"longitude":-1.52995959270347},{"number":93,"name":"#00093-FACULTES","address":"FACULTES - ANGLE ROUTE DE LA JONELIERE & BD G. MOLLET","latitude":47.2462980684235,"longitude":-1.5553090111073},{"number":44,"name":"#00044-PALAIS DE JUSTICE","address":"PALAIS DE JUSTICE - 19 QUAI FRANCOIS MITTERAND","latitude":47.2083172884415,"longitude":-1.5611730779894},{"number":48,"name":"#00048-VERDUN","address":"VERDUN - 15 RUE DE VERDUN","latitude":47.2175053746786,"longitude":-1.55184978437031},{"number":1,"name":"#00001-PREFECTURE","address":"PREFECTURE - 5 QUAI CEINERAY","latitude":47.2202551837245,"longitude":-1.55408380740881},{"number":104,"name":"#00104 - ANTILLES","address":"20 QUAI DES ANTILLES","latitude":47.202547,"longitude":-1.572325},{"number":99,"name":"#00099-ST JACQUES","address":"ST JACQUES - RUE ST JACQUES","latitude":47.1958989090141,"longitude":-1.5365406634647},{"number":108,"name":"#00108 - BONNE GARDE","address":"BONNE GARDE - 97 RUE BONNE GARDE","latitude":47.197217,"longitude":-1.532105},{"number":23,"name":"#00023-BUAT","address":"BUAT - 118 RUE DE COULMIERS","latitude":47.2271454682246,"longitude":-1.5424047412504},{"number":80,"name":"#00080 - VICTOR HUGO","address":"VICTOR HUGO - BD VICTOR HUGO","latitude":47.2040032084911,"longitude":-1.5515484848032},{"number":90,"name":"#00090-PROCE","address":"PROCE - ANGLE BD G. SERPETTE & BD A. PAGEOT","latitude":47.2241950617326,"longitude":-1.57661284372726},{"number":61,"name":"#00061-LU - LIEU UNIQUE","address":"LIEU UNIQUE - FACE 23 QUAI FERDINAND FAVRE","latitude":47.2155914639598,"longitude":-1.54590593911211},{"number":32,"name":"#00032-FOCH","address":"FOCH - PLACE FOCH","latitude":47.2191122,"longitude":-1.5502297},{"number":17,"name":"#00017-SAINTE ELISABETH","address":"SAINTE ELISABTEH - 3 PLACE STE ELISABETH","latitude":47.2192139526135,"longitude":-1.56157014764171},{"number":29,"name":"#00029-DUGUAY TROUIN","address":"DUGUAY TROUIN - 7 ALLEE DUGUAY TROUIN","latitude":47.2134502313651,"longitude":-1.55526992265602},{"number":21,"name":"#00021-MARCHE TALENSAC SUD","address":"MARCHE TALENSAC SUD - 6 RUE TALENSAC","latitude":47.2211433291291,"longitude":-1.55647633932779},{"number":50,"name":"#00050-CHATEAU","address":"CHATEAU - 7 RUE DES ETATS","latitude":47.2151496951626,"longitude":-1.55022624256337},{"number":37,"name":"#00037-FEYDEAU","address":"FEYDEAU - 1 ALLEE ILE GLORIETTE","latitude":47.211465063355,"longitude":-1.5568245371939},{"number":71,"name":"#00071-MARCHE TALENSAC NORD","address":"MARCHE TALENSAC NORD - 18 RUE TALENSAC","latitude":47.2218536381884,"longitude":-1.55894074669074},{"number":86,"name":"#00086-HAUTS PAVÉS","address":"HAUT PAVES - ANGLE RUE DE BERRY/RUE DES HAUTS PAVES","latitude":47.2254706269804,"longitude":-1.56750184250227},{"number":41,"name":"#00041-BRUNELIERE","address":"CHANTIER NAVAL - 6 PLACE COMMANDANT JEAN l'HERMINIE","latitude":47.208905,"longitude":-1.56823},{"number":12,"name":"#00012-PLACE DELORME","address":"PLACE DELORME","latitude":47.2151581886857,"longitude":-1.56390067346586},{"number":98,"name":"#00098-HUIT MAI","address":"HUIT MAI - AVENUE DE LA LIBERATION - REZE","latitude":47.189212047513,"longitude":-1.55082803645635},{"number":26,"name":"#00026-GUIST'HAU SUD","address":"GUIST'HAU SUD - 26 BOULEVARD GUIST'HAU","latitude":47.2168279599745,"longitude":-1.56700452626517},{"number":52,"name":"#00052-BACO","address":"BACO - FACE AU 8 ALLEE BACO","latitude":47.2143275245891,"longitude":-1.54875055574198},{"number":120,"name":"#00120-ROND-POINT DE PARIS","address":"#00120-ROND-POINT DE PARIS 16 BOULEVARD JULES VERNE","latitude":47.234853,"longitude":-1.534981},{"number":39,"name":"#00039-QUAI MONCOUSU","address":"QUAI MONCOUSU - 11 QUAI MONCOUSU","latitude":47.2094065738737,"longitude":-1.55523314463147},{"number":35,"name":"#00035-JEAN V","address":"JEAN V - 2 PLACE JEAN V","latitude":47.2121689744121,"longitude":-1.5655439860751},{"number":11,"name":"#00011-CALVAIRE","address":"CALVAIRE - PL.DES VOLONTAIRES DE LA DEFENSE PASSIVE","latitude":47.2155789424271,"longitude":-1.56067528370012},{"number":101,"name":"#00101 - PIRMIL","address":"PIRMIL - RUE ESNOUL DES CHATELETS","latitude":47.1965313642396,"longitude":-1.54156809120326},{"number":119,"name":"#00119 - ZOLA","address":"ZOLA - PLACE EMILE ZOLA","latitude":47.213859,"longitude":-1.586108},{"number":63,"name":"#00063-JARDIN DES PLANTES","address":"JARDIN DES PLANTES - 6 RUE STANILAS BAUDRY","latitude":47.219834197319,"longitude":-1.54471896453159},{"number":16,"name":"#00016-PLACE EDOUARD NORMAND","address":"PLACE EDOUARD NORMAND - FACE AU 7 PLACE EDOUARD NORMAND","latitude":47.2190275447384,"longitude":-1.56341948405375},{"number":100,"name":"#00100 - GRENERAIE","address":"GRENERAIE - PARC DE LA GRENERAIE","latitude":47.1999230929052,"longitude":-1.53471754047048},{"number":88,"name":"#00088-MELLINET","address":"MELLINET - 1 BD ALLARD","latitude":47.2115010701178,"longitude":-1.57717541432178},{"number":70,"name":"#00070-GARE SUD 2","address":"Quai Malakoff - côté canal st Félix","latitude":47.215505,"longitude":-1.542844},{"number":4,"name":"#00004-MOULIN","address":"MOULIN - FACE AU 18 RUE DU MOULIN","latitude":47.2166675820152,"longitude":-1.5543847138777},{"number":96,"name":"#00096-TORTIERE","address":"TORTIERE - BD EUGENE ORIEUX","latitude":47.2353352222086,"longitude":-1.54922176680989},{"number":105,"name":"#00105 - HANGAR A BANANES","address":"HANGAR A BANANES - 6 BOULEVARD DES ANTILLES","latitude":47.199408,"longitude":-1.573184},{"number":64,"name":"#00064-SAINT CLEMENT","address":"SAINT CLEMENT - FACE AU 37 RUE DU MARECHAL JOFFRE","latitude":47.2217851835226,"longitude":-1.5470992337185},{"number":54,"name":"#00054- CITE INTERNATIONALE DES CONGRES","address":"CITE INTERNATIONAL DES CONGRES - 2 RUE DE JEMMAPES","latitude":47.2131800855278,"longitude":-1.54495254166858},{"number":14,"name":"#00014-SAINT FÉLIX","address":"Saint Félix - 35 Boulevard Amiral Courbet","latitude":47.230334,"longitude":-1.556133},{"number":9,"name":"#00009-GUEPIN","address":"GUEPIN - 8 RUE DE L'ARCHE SECHE","latitude":47.2158145871395,"longitude":-1.55901748516744},{"number":28,"name":"#00028- PLACE DE L'EDIT NANTES","address":"PLACE DE L'EDIT DE NANTES","latitude":47.2144634273858,"longitude":-1.56756801666384},{"number":33,"name":"#00033-RACINE","address":"RACINE - 4 RUE RACINE","latitude":47.2135226137199,"longitude":-1.5631408744314},{"number":24,"name":"#00024-VERSAILLES","address":"VERSAILLES - FACE AU 25 QUAI DE VERSAILLES","latitude":47.2245149071911,"longitude":-1.55371196140233},{"number":68,"name":"#00068-LIVET","address":"LIVET - FACE AU 65 RUE DUFOUR","latitude":47.2240678794875,"longitude":-1.54521243421509},{"number":65,"name":"#00065-COURS SULLY","address":"COURS SULLY - FACE AU 9 COURS SULLY","latitude":47.2225873399067,"longitude":-1.55166644254598},{"number":114,"name":"#00114 - ATOUTSUD","address":"114 - ATOUTSUD ANGLE RUE DE L'ABBE GREGOIRE/AV MARECHAL TASSIGNY","latitude":47.194493,"longitude":-1.570365},{"number":69,"name":"#00069 - MANUFACTURE","address":"MANUFACTURE - 11 BIS BD STALINGRAD","latitude":47.2192163807113,"longitude":-1.53584744327638},{"number":13,"name":"#00013-BRETAGNE SUD","address":"BRETAGNE SUD - 1 RUE PIERRE CHEREAU","latitude":47.216787949913,"longitude":-1.55916106661899},{"number":36,"name":"#00036-ALGER","address":"ALGER - 10 RUE D'ALGER","latitude":47.210549,"longitude":-1.567368},{"number":82,"name":"#00082-SEBILLEAU","address":"SEBILLEAU - 9 RUE GAETAN RONDEAU","latitude":47.2067575123084,"longitude":-1.53311824492362},{"number":5,"name":"#00005-BROSSARD","address":"BROSSARD - 12 Allée Duquesne","latitude":47.2188372304694,"longitude":-1.55674926307655},{"number":6,"name":"#00006-PLACE DU CIRQUE","address":"PLACE DU CIRQUE - 7 ALLEE DUQUESNE","latitude":47.217596682406,"longitude":-1.55693764537887}]